{
  "popular_beaches": [
    {
      "name": "Baga Beach",
      "category": "Popular Beach",
      "location": {
        "state": "Goa",
        "district": "North Goa",
        "latitude": 15.5583,
        "longitude": 73.7631
      },
      "description": "Known for vibrant nightlife, water sports, and lively beach shacks.",
      "activities": ["Water sports", "Beach shacks", "Nightlife"],
      "best_time_to_visit": ["November", "December", "January", "February"],
      "image_url": "../images/baga beach.jpg",
      "price": 2000,
      "duration": "2-4 hours"
    },
    {
      "name": "Marina Beach",
      "category": "Popular Beach",
      "location": {
        "state": "Tamil Nadu",
        "district": "Chennai",
        "latitude": 13.0537,
        "longitude": 80.2824
      },
      "description": "The longest urban beach in India, famous for its sunrise views and cultural landmarks.",
      "activities": ["Walking", "Horse riding", "Street food"],
      "best_time_to_visit": ["November", "December", "January", "February"],
      "image_url": "../images/marina beach.jpg",
      "price": 1500,
      "duration": "1-3 hours"
    },
    {
      "name": "Radhanagar Beach",
      "category": "Popular Beach",
      "location": {
        "state": "Andaman and Nicobar Islands",
        "district": "Havelock Island",
        "latitude": 11.9836,
        "longitude": 92.9783
      },
      "description": "Renowned for its pristine beauty, turquoise waters, and white sands.",
      "activities": ["Swimming", "Snorkeling", "Photography"],
      "best_time_to_visit": ["November", "December", "January", "February", "March"],
      "image_url": "../images/radhanagar beach.jpg",
      "price": 500,
      "duration": "3-5 hours"
    },
    {
      "name": "Kovalam Beach",
      "category": "Popular Beach",
      "location": {
        "state": "Kerala",
        "district": "Thiruvananthapuram",
        "latitude": 8.4003,
        "longitude": 76.9786
      },
      "description": "A popular beach destination in Kerala, known for its crescent-shaped coastline.",
      "activities": ["Surfing", "Ayurvedic treatments", "Sunbathing"],
      "best_time_to_visit": ["September", "October", "November", "December", "January", "February"],
      "image_url": "../images/kovalam beach.jpg",
      "price": 1500,
      "duration": "2-6 hours"
    },
    {
      "name": "Gokarna Beach",
      "category": "Popular Beach",
      "location": {
        "state": "Karnataka",
        "district": "Uttara Kannada",
        "latitude": 14.5503,
        "longitude": 74.3186
      },
      "description": "A serene beach town famous for its temples and laid-back atmosphere.",
      "activities": ["Yoga retreats", "Hiking", "Beach camping"],
      "best_time_to_visit": ["October", "November", "December", "January", "February"],
      "image_url": "../images/gokarna page.jpg",
      "price": 1000,
      "duration": "4-8 hours"
    }
  ]
  ,
  "mountains": [
    {
      "name": "Kanchenjunga",
      "category": "mountains",
      "height_meters": 8586,
      "height_feet": 28169,
      "location": {
        "state": "Sikkim",
        "district": "North Sikkim",
        "latitude": 27.7025,
        "longitude": 88.1475
      },
      "significance": "The third-highest mountain in the world and revered as a sacred mountain by the people of Sikkim.",
      "image_url": "../images/kanjenjunga.jpg",
      "know_more": "",
      "description": "Kanchenjunga is a majestic peak located in the Himalayan range of Sikkim. Its towering height and spiritual significance make it a mesmerizing destination for mountaineers and pilgrims.",
      "price_range": 2000,
      "duration": "10-15 days"
    },
    {
      "name": "Nanda Devi",
      "category": "mountains",
      "height_meters": 7816,
      "height_feet": 25643,
      "location": {
        "state": "Uttarakhand",
        "district": "Chamoli",
        "latitude": 30.3752,
        "longitude": 79.9717
      },
      "significance": "The second-highest peak in India, part of the UNESCO World Heritage Nanda Devi and Valley of Flowers National Parks.",
      "image_url": "../images/nanda devi mountain.jpg",
      "know_more": "",
      "description": "Nanda Devi, surrounded by enchanting valleys and wildlife, stands as a sentinel in the Garhwal Himalayas, symbolizing both natural beauty and spiritual reverence.",
      "price_range": 1500,
      "duration": "7-12 days"
    },
    {
      "name": "Mount Trishul",
      "category": "mountains",
      "height_meters": 7120,
      "height_feet": 23359,
      "location": {
        "state": "Uttarakhand",
        "district": "Bageshwar",
        "latitude": 30.3047,
        "longitude": 79.9172
      },
      "significance": "Known for its resemblance to Lord Shiva’s trident and popular among trekkers.",
      "image_url": "../images/mount trisul.jpg",
      "know_more": "",
      "description": "Mount Trishul, named after Lord Shiva's weapon, is a trekker's paradise offering breathtaking views and challenging routes.",
      "price_range": 2000,
      "duration": "5-10 days"
    },
    {
      "name": "Kangto",
      "category": "mountains",
      "height_meters": 7060,
      "height_feet": 23163,
      "location": {
        "state": "Arunachal Pradesh",
        "district": "West Kameng",
        "latitude": 27.9667,
        "longitude": 92.3333
      },
      "significance": "The highest peak in Arunachal Pradesh, located in the Eastern Himalayas.",
      "image_url": "../images/kangto.jpg",
      "know_more": "",
      "description": "Kangto dominates the Eastern Himalayas with its rugged beauty, drawing adventure seekers to Arunachal Pradesh.",
      "price_range": 3000,
      "duration": "8-14 days"
    },
    {
      "name": "Stok Kangri",
      "category": "mountains",
      "height_meters": 6153,
      "height_feet": 20187,
      "location": {
        "state": "Ladakh",
        "district": "Leh",
        "latitude": 34.0566,
        "longitude": 77.4622
      },
      "significance": "A popular trekking peak offering stunning views of Ladakh.",
      "image_url": "../images/stock kangri.jpg",
      "know_more": "",
      "description": "Stok Kangri is a challenging yet rewarding trek, offering panoramic views of the mesmerizing Ladakh region.",
      "price_range": 1000,
      "duration": "6-12 days"
    }
  ]

  ,
 "adventures": [
    {
      "name": "Rishikesh",
      "category": "Adventures",
      "state": "Uttarakhand",
      "activities": ["White-water rafting", "Bungee jumping", "Cliff jumping", "Trekking"],
      "description": "Known as the 'Adventure Capital of India,' offering adrenaline-pumping activities amid the serene beauty of the Himalayas.",
      "image_url": "../images/risikesh.jpg",
      "price_range": 1500,
      "duration": "1-3 days",
      "location": {
        "state": "Uttarakhand",
        "district": "Dehradun",
        "latitude": 30.0864,
        "longitude": 78.2676
      }
    },
    {
      "name": "Manali",
      "category": "Adventures",
      "state": "Himachal Pradesh",
      "activities": ["Paragliding", "Skiing", "Zorbing", "Trekking"],
      "description": "A hub for adventure sports, especially known for skiing in Solang Valley and Rohtang Pass.",
      "image_url": "../images/manali.jpg",
      "price_range": 1000,
      "duration": "2-4 days",
      "location": {
        "state": "Himachal Pradesh",
        "district": "Kullu",
        "latitude": 32.2396,
        "longitude": 77.1887
      }
    },
    {
      "name": "Leh-Ladakh",
      "category": "Adventures",
      "state": "Jammu & Kashmir",
      "activities": ["Motorcycle expeditions", "Trekking", "River rafting", "Mountain biking"],
      "description": "Offers high-altitude adventure with breathtaking landscapes and the thrill of riding through the highest motorable roads.",
      "image_url": "../images/ladakh.jpg",
      "price_range": 3000,
      "duration": "7-12 days",
      "location": {
        "state": "Ladakh",
        "district": "Leh",
        "latitude": 34.1526,
        "longitude": 77.5771
      }
    },
    {
      "name": "Andaman and Nicobar Islands",
      "category": "Adventures",
      "activities": ["Scuba diving", "Snorkeling", "Sea walking", "Kayaking"],
      "description": "Famous for crystal-clear waters and vibrant coral reefs, ideal for underwater adventures on Havelock Island.",
      "image_url": "../images/andaman.jpg",
      "price_range": 2000,
      "duration": "3-5 days",
      "location": {
        "state": "Andaman and Nicobar Islands",
        "district": "South Andaman",
        "latitude": 11.6089,
        "longitude": 92.7265
      }
    },
    {
      "name": "Goa",
      "category": "Adventures",
      "state": "Goa",
      "activities": ["Parasailing", "Jet skiing", "Windsurfing", "Scuba diving"],
      "description": "Beyond its beaches and nightlife, Goa offers adrenaline-packed water sports along its scenic coastline.",
      "image_url": "../images/goa beach.jpg",
      "price_range": 2000,
      "duration": "1-3 days",
      "location": {
        "state": "Goa",
        "district": "North Goa",
        "latitude": 15.2993,
        "longitude": 74.1240
      }
    },
    {
      "name": "Meghalaya",
      "category": "Adventures",
      "state": "Meghalaya",
      "activities": ["Caving", "Trekking", "River canyoning"],
      "description": "Explore mysterious caves like Mawsmai and trek to the unique Living Root Bridges in Cherrapunji.",
      "image_url": "../images/meghalaya.jpg",
      "price_range": 1500,
      "duration": "3-6 days",
      "location": {
        "state": "Meghalaya",
        "district": "East Khasi Hills",
        "latitude": 25.5670,
        "longitude": 91.8831
      }
    },
    {
      "name": "Spiti Valley",
      "category": "Adventures",
      "state": "Himachal Pradesh",
      "activities": ["High-altitude trekking", "Mountain biking", "Camping"],
      "description": "Offers raw adventure in a stark desert landscape with ancient monasteries and challenging terrain.",
      "image_url": "../images/himachal pradesh.jpg",
      "price_range": 3000,
      "duration": "5-7 days",
      "location": {
        "state": "Himachal Pradesh",
        "district": "Lahaul and Spiti",
        "latitude": 32.2466,
        "longitude": 78.0172
      }
    },
    {
      "name": "Auli",
      "category": "Adventures",
      "state": "Uttarakhand",
      "activities": ["Skiing", "Snowboarding", "Trekking"],
      "description": "India’s premier skiing destination, perfect for winter sports enthusiasts.",
      "image_url": "../images/auli.jpg",
      "price_range": 1000,
      "duration": "2-5 days",
      "location": {
        "state": "Uttarakhand",
        "district": "Chamoli",
        "latitude": 30.3752,
        "longitude": 79.9717
      }
    },
    {
      "name": "Sikkim",
      "category": "Adventures",
      "state": "Sikkim",
      "activities": ["High-altitude trekking", "River rafting", "Paragliding"],
      "description": "Famous for the Goechala Trek and Dzongri Trek, offering rugged Himalayan beauty and adventure.",
      "image_url": "../images/sikkim.jpg",
      "price_range": 2000,
      "duration": "4-8 days",
      "location": {
        "state": "Sikkim",
        "district": "West Sikkim",
        "latitude": 27.3201,
        "longitude": 88.6138
      }
    },
    {
      "name": "Coorg",
      "category": "Adventures",
      "state": "Karnataka",
      "activities": ["River rafting", "Trekking", "Microlight flying"],
      "description": "Known as the 'Scotland of India,' Coorg is perfect for nature lovers and adventure seekers.",
      "image_url": "../images/coorg.jpg",
      "price_range": 1500,
      "duration": "3-6 days",
      "location": {
        "state": "Karnataka",
        "district": "Kodagu",
        "latitude": 12.3375,
        "longitude": 75.8069
      }
    }
  ],
 "historical": [
    {
      "name": "Taj Mahal",
      "category": "Historical",
      "location": {
        "state": "Uttar Pradesh",
        "district": "Agra",
        "latitude": 27.1751,
        "longitude": 78.0421
      },
      "image_url": "../images/taj mahal.jpg",
      "description": "A UNESCO World Heritage site and a symbol of love.",
      "price_range": 1000,
      "duration": "2-3 hours"
    },
    {
      "name": "Red Fort",
      "category": "Historical",
      "location": {
        "state": "Delhi",
        "district": "Central Delhi",
        "latitude": 28.6562,
        "longitude": 77.2410
      },
      "image_url": "../images/red fort.jpg",
      "description": "A historic fort and a prime example of Mughal architecture.",
      "price_range": 1500,
      "duration": "2-3 hours"
    },
    {
      "name": "Hampi",
      "category": "Historical",
      "location": {
        "state": "Karnataka",
        "district": "Ballari",
        "latitude": 15.3350,
        "longitude": 76.4600
      },
      "image_url": "../images/hampi.jpg",
      "description": "Ancient ruins of the Vijayanagara Empire, a UNESCO site.",
      "price_range": 3000,
      "duration": "1-2 days"
    },
    {
      "name": "Qutub Minar",
      "category": "Historical",
      "location": {
        "state": "Delhi",
        "district": "South Delhi",
        "latitude": 28.5245,
        "longitude": 77.1855
      },
      "image_url": "../images/qutub-minar.jpg",
      "description": "A towering minaret and the tallest brick minaret in the world.",
      "price_range": 1000,
      "duration": "1-2 hours"
    },
    {
      "name": "Amber Fort",
      "category": "Historical",
      "location": {
        "state": "Rajasthan",
        "district": "Jaipur",
        "latitude": 26.9855,
        "longitude": 75.8513
      },
      "image_url": "../images/amber fort.jpg",
      "description": "A majestic fort built with red sandstone and marble.",
      "price_range": 1000,
      "duration": "2-4 hours"
    },
    {
      "name": "Khajuraho Temples",
      "category": "Historical",
      "location": {
        "state": "Madhya Pradesh",
        "district": "Chhatarpur",
        "latitude": 24.8520,
        "longitude": 79.9199
      },
      "image_url": "../images/khajuraho temple.jpg",
      "description": "Famous for their intricate erotic sculptures.",
      "price_range": 1500,
      "duration": "2-4 hours"
    },
    {
      "name": "Fatehpur Sikri",
      "category": "Historical",
      "location": {
        "state": "Uttar Pradesh",
        "district": "Agra",
        "latitude": 27.0914,
        "longitude": 77.6610
      },
      "image_url": "../images/fatehpur.jpg",
      "description": "A ghost town built by Emperor Akbar, now a UNESCO site.",
      "price_range": 2000,
      "duration": "2-4 hours"
    },
    {
      "name": "Sanchi Stupa",
      "category": "Historical",
      "location": {
        "state": "Madhya Pradesh",
        "district": "Raisen",
        "latitude": 23.4794,
        "longitude": 77.7399
      },
      "image_url": "../images/stanchi stupa.jpg",
      "description": "A Buddhist complex famous for its Great Stupa.",
      "price_range": 1000,
      "duration": "1-2 hours"
    },
    {
      "name": "Golkonda Fort",
      "category": "Historical",
      "location": {
        "state": "Telangana",
        "district": "Hyderabad",
        "latitude": 17.3833,
        "longitude": 78.4011
      },
      "image_url": "../images/golkonda.jpg",
      "description": "A historic fort known for its impressive architecture and acoustics.",
      "price_range": 1500,
      "duration": "2-4 hours"
    },
    {
      "name": "Victoria Memorial",
      "category": "Historical",
      "location": {
        "state": "West Bengal",
        "district": "Kolkata",
        "latitude": 22.5448,
        "longitude": 88.3426
      },
      "image_url": "../images/victoria.jpg",
      "description": "A grand marble building dedicated to Queen Victoria.",
      "price_range": 2000,
      "duration": "1-2 hours"
    }
  ]
}

